event time 31 Jul 2018 13:05:05 GMT id:180 1533042305960 MAVLINK_MSG_ID_CAMERA_FEEDBACK - time_usec:1533042308160000 lat:509778211 lng:311425238 alt_msl:115.06 alt_rel:-0.21 roll:1.44 pitch:0.53 yaw:3.47 foc_len:0.0 img_idx:1 target_system:0 cam_idx:0 flags:0
event time 31 Jul 2018 13:11:44 GMT id:180 1533042704474 MAVLINK_MSG_ID_CAMERA_FEEDBACK - time_usec:1533045625978824 lat:509523776 lng:311554879 alt_msl:371.55 alt_rel:251.45 roll:-3.54 pitch:-2.33 yaw:195.97 foc_len:0.0 img_idx:2 target_system:0 cam_idx:0 flags:0
event time 31 Jul 2018 13:11:50 GMT id:180 1533042710246 MAVLINK_MSG_ID_CAMERA_FEEDBACK - time_usec:1533042724166408 lat:509514761 lng:311552235 alt_msl:368.53 alt_rel:248.43 roll:-3.24 pitch:0.51 yaw:179.63 foc_len:0.0 img_idx:3 target_system:0 cam_idx:0 flags:0
event time 31 Jul 2018 13:11:55 GMT id:180 1533042715893 MAVLINK_MSG_ID_CAMERA_FEEDBACK - time_usec:1533045626607680 lat:509505479 lng:311551390 alt_msl:368.2 alt_rel:248.1 roll:-3.17 pitch:2.69 yaw:183.98 foc_len:0.0 img_idx:4 target_system:0 cam_idx:0 flags:0
event time 31 Jul 2018 13:12:01 GMT id:180 1533042721416 MAVLINK_MSG_ID_CAMERA_FEEDBACK - time_usec:1533045626634120 lat:509496457 lng:311550183 alt_msl:368.07 alt_rel:247.97 roll:-2.59 pitch:1.76 yaw:182.92 foc_len:0.0 img_idx:5 target_system:0 cam_idx:0 flags:0
event time 31 Jul 2018 13:12:06 GMT id:180 1533042726751 MAVLINK_MSG_ID_CAMERA_FEEDBACK - time_usec:1533042729041000 lat:509487444 lng:311547791 alt_msl:371.07 alt_rel:250.97 roll:30.62 pitch:7.49 yaw:223.73 foc_len:0.0 img_idx:6 target_system:0 cam_idx:0 flags:0
event time 31 Jul 2018 13:12:11 GMT id:180 1533042731821 MAVLINK_MSG_ID_CAMERA_FEEDBACK - time_usec:1533045626605432 lat:509485632 lng:311533811 alt_msl:371.71 alt_rel:251.61 roll:36.48 pitch:0.35 yaw:350.33 foc_len:0.0 img_idx:7 target_system:0 cam_idx:0 flags:0
event time 31 Jul 2018 13:12:18 GMT id:180 1533042738045 MAVLINK_MSG_ID_CAMERA_FEEDBACK - time_usec:1533045625978760 lat:509484077 lng:311519687 alt_msl:372.71 alt_rel:252.61 roll:-39.55 pitch:3.23 yaw:185.75 foc_len:0.0 img_idx:8 target_system:0 cam_idx:0 flags:0
event time 31 Jul 2018 13:12:25 GMT id:180 1533042745081 MAVLINK_MSG_ID_CAMERA_FEEDBACK - time_usec:1533042757701224 lat:509476028 lng:311526251 alt_msl:369.48 alt_rel:249.38 roll:-5.25 pitch:-0.1 yaw:134.42 foc_len:0.0 img_idx:9 target_system:0 cam_idx:0 flags:0
event time 31 Jul 2018 13:12:32 GMT id:180 1533042752834 MAVLINK_MSG_ID_CAMERA_FEEDBACK - time_usec:1533045626607376 lat:509469528 lng:311536555 alt_msl:367.87 alt_rel:247.77 roll:-4.04 pitch:-0.04 yaw:131.58 foc_len:0.0 img_idx:10 target_system:0 cam_idx:0 flags:0
event time 31 Jul 2018 13:12:41 GMT id:180 1533042761227 MAVLINK_MSG_ID_CAMERA_FEEDBACK - time_usec:1533042763562976 lat:509464768 lng:311548706 alt_msl:367.7 alt_rel:247.6 roll:-7.0 pitch:1.86 yaw:107.89 foc_len:0.0 img_idx:11 target_system:0 cam_idx:0 flags:0
event time 31 Jul 2018 13:12:51 GMT id:180 1533042771617 MAVLINK_MSG_ID_CAMERA_FEEDBACK - time_usec:1533045626604080 lat:509466864 lng:311562726 alt_msl:369.93 alt_rel:249.83 roll:-1.52 pitch:2.26 yaw:76.1 foc_len:0.0 img_idx:12 target_system:0 cam_idx:0 flags:0
event time 31 Jul 2018 13:13:01 GMT id:180 1533042781975 MAVLINK_MSG_ID_CAMERA_FEEDBACK - time_usec:1533045626605856 lat:509470834 lng:311575582 alt_msl:371.93 alt_rel:251.83 roll:0.28 pitch:-1.24 yaw:66.99 foc_len:0.0 img_idx:13 target_system:0 cam_idx:0 flags:0
event time 31 Jul 2018 13:13:12 GMT id:180 1533042792021 MAVLINK_MSG_ID_CAMERA_FEEDBACK - time_usec:1533042794260000 lat:509474995 lng:311588253 alt_msl:370.57 alt_rel:250.47 roll:4.53 pitch:-1.75 yaw:63.99 foc_len:0.0 img_idx:14 target_system:0 cam_idx:0 flags:0
event time 31 Jul 2018 13:13:22 GMT id:180 1533042802411 MAVLINK_MSG_ID_CAMERA_FEEDBACK - time_usec:1533045623253288 lat:509475974 lng:311602429 alt_msl:369.66 alt_rel:249.56 roll:3.2 pitch:-0.18 yaw:86.08 foc_len:0.0 img_idx:15 target_system:0 cam_idx:0 flags:0
event time 31 Jul 2018 13:13:33 GMT id:180 1533042813487 MAVLINK_MSG_ID_CAMERA_FEEDBACK - time_usec:1533042824809504 lat:509475989 lng:311616734 alt_msl:370.11 alt_rel:250.01 roll:0.67 pitch:-0.1 yaw:85.35 foc_len:0.0 img_idx:16 target_system:0 cam_idx:0 flags:0
event time 31 Jul 2018 13:13:44 GMT id:180 1533042824220 MAVLINK_MSG_ID_CAMERA_FEEDBACK - time_usec:1533042826441000 lat:509476478 lng:311631066 alt_msl:369.6 alt_rel:249.5 roll:0.82 pitch:-1.18 yaw:81.84 foc_len:0.0 img_idx:17 target_system:0 cam_idx:0 flags:0
event time 31 Jul 2018 13:13:53 GMT id:180 1533042833564 MAVLINK_MSG_ID_CAMERA_FEEDBACK - time_usec:1533045620932592 lat:509476834 lng:311645446 alt_msl:371.44 alt_rel:251.34 roll:-4.48 pitch:-2.59 yaw:92.45 foc_len:0.0 img_idx:18 target_system:0 cam_idx:0 flags:0
event time 31 Jul 2018 13:14:03 GMT id:180 1533042843268 MAVLINK_MSG_ID_CAMERA_FEEDBACK - time_usec:1533042858371592 lat:509477431 lng:311659712 alt_msl:367.33 alt_rel:247.23 roll:3.31 pitch:0.79 yaw:88.15 foc_len:0.0 img_idx:19 target_system:0 cam_idx:0 flags:0
event time 31 Jul 2018 13:14:14 GMT id:180 1533042854203 MAVLINK_MSG_ID_CAMERA_FEEDBACK - time_usec:1533045626621184 lat:509484442 lng:311668830 alt_msl:370.51 alt_rel:250.41 roll:-25.22 pitch:0.6 yaw:354.66 foc_len:0.0 img_idx:20 target_system:0 cam_idx:0 flags:0
event time 31 Jul 2018 13:14:19 GMT id:180 1533042859835 MAVLINK_MSG_ID_CAMERA_FEEDBACK - time_usec:1533042875142664 lat:509487199 lng:311654748 alt_msl:370.87 alt_rel:250.77 roll:-12.1 pitch:-0.52 yaw:257.68 foc_len:0.0 img_idx:21 target_system:0 cam_idx:0 flags:0
event time 31 Jul 2018 13:14:24 GMT id:180 1533042864499 MAVLINK_MSG_ID_CAMERA_FEEDBACK - time_usec:1533042875170760 lat:509485619 lng:311640457 alt_msl:369.59 alt_rel:249.49 roll:7.79 pitch:2.45 yaw:282.4 foc_len:0.0 img_idx:22 target_system:0 cam_idx:0 flags:0
event time 31 Jul 2018 13:14:29 GMT id:180 1533042869117 MAVLINK_MSG_ID_CAMERA_FEEDBACK - time_usec:1533045622833088 lat:509487243 lng:311626022 alt_msl:373.97 alt_rel:253.87 roll:-3.43 pitch:-1.37 yaw:286.88 foc_len:0.0 img_idx:23 target_system:0 cam_idx:0 flags:0
event time 31 Jul 2018 13:14:33 GMT id:180 1533042873812 MAVLINK_MSG_ID_CAMERA_FEEDBACK - time_usec:1533042876153792 lat:509488802 lng:311611447 alt_msl:373.17 alt_rel:253.07 roll:23.97 pitch:-3.3 yaw:285.56 foc_len:0.0 img_idx:24 target_system:0 cam_idx:0 flags:0
event time 31 Jul 2018 13:14:42 GMT id:180 1533042882408 MAVLINK_MSG_ID_CAMERA_FEEDBACK - time_usec:1533045626634216 lat:509497557 lng:311607967 alt_msl:366.01 alt_rel:245.91 roll:1.77 pitch:3.58 yaw:25.55 foc_len:0.0 img_idx:25 target_system:0 cam_idx:0 flags:0
event time 31 Jul 2018 13:14:51 GMT id:180 1533042891035 MAVLINK_MSG_ID_CAMERA_FEEDBACK - time_usec:1533042893324184 lat:509505543 lng:311614702 alt_msl:367.03 alt_rel:246.93 roll:-2.17 pitch:2.11 yaw:25.73 foc_len:0.0 img_idx:26 target_system:0 cam_idx:0 flags:0
event time 31 Jul 2018 13:14:59 GMT id:180 1533042899786 MAVLINK_MSG_ID_CAMERA_FEEDBACK - time_usec:1533045626634216 lat:509513716 lng:311621010 alt_msl:369.77 alt_rel:249.67 roll:-1.25 pitch:0.32 yaw:30.02 foc_len:0.0 img_idx:27 target_system:0 cam_idx:0 flags:0
event time 31 Jul 2018 13:15:08 GMT id:180 1533042908210 MAVLINK_MSG_ID_CAMERA_FEEDBACK - time_usec:1533042910560160 lat:509521622 lng:311627891 alt_msl:372.93 alt_rel:252.83 roll:-0.25 pitch:-1.51 yaw:21.38 foc_len:0.0 img_idx:28 target_system:0 cam_idx:0 flags:0
event time 31 Jul 2018 13:15:16 GMT id:180 1533042916650 MAVLINK_MSG_ID_CAMERA_FEEDBACK - time_usec:1533045626605376 lat:509529738 lng:311634150 alt_msl:370.62 alt_rel:250.52 roll:-2.64 pitch:0.2 yaw:25.93 foc_len:0.0 img_idx:29 target_system:0 cam_idx:0 flags:0
event time 31 Jul 2018 13:15:25 GMT id:180 1533042925932 MAVLINK_MSG_ID_CAMERA_FEEDBACK - time_usec:1533042942279552 lat:509535866 lng:311644922 alt_msl:367.93 alt_rel:247.83 roll:-7.02 pitch:0.39 yaw:48.26 foc_len:0.0 img_idx:30 target_system:0 cam_idx:0 flags:0
event time 31 Jul 2018 13:15:33 GMT id:180 1533042933935 MAVLINK_MSG_ID_CAMERA_FEEDBACK - time_usec:1533045626625872 lat:509542002 lng:311655857 alt_msl:371.08 alt_rel:250.98 roll:-1.52 pitch:1.01 yaw:48.46 foc_len:0.0 img_idx:31 target_system:0 cam_idx:0 flags:0
event time 31 Jul 2018 13:15:42 GMT id:180 1533042942265 MAVLINK_MSG_ID_CAMERA_FEEDBACK - time_usec:1533042944466000 lat:509548057 lng:311666526 alt_msl:376.83 alt_rel:256.73 roll:-3.83 pitch:-6.17 yaw:42.74 foc_len:0.0 img_idx:32 target_system:0 cam_idx:0 flags:0
event time 31 Jul 2018 13:15:50 GMT id:180 1533042950689 MAVLINK_MSG_ID_CAMERA_FEEDBACK - time_usec:1533045626618728 lat:509553881 lng:311677757 alt_msl:369.91 alt_rel:249.81 roll:-2.43 pitch:-4.06 yaw:47.65 foc_len:0.0 img_idx:33 target_system:0 cam_idx:0 flags:0
event time 31 Jul 2018 13:15:59 GMT id:180 1533042959675 MAVLINK_MSG_ID_CAMERA_FEEDBACK - time_usec:1533042961940448 lat:509559888 lng:311688741 alt_msl:367.87 alt_rel:247.77 roll:0.5 pitch:-1.58 yaw:45.74 foc_len:0.0 img_idx:34 target_system:0 cam_idx:0 flags:0
event time 31 Jul 2018 13:16:08 GMT id:180 1533042968661 MAVLINK_MSG_ID_CAMERA_FEEDBACK - time_usec:1533045626616328 lat:509566042 lng:311699411 alt_msl:371.46 alt_rel:251.36 roll:2.35 pitch:-3.54 yaw:49.72 foc_len:0.0 img_idx:35 target_system:0 cam_idx:0 flags:0
event time 31 Jul 2018 13:16:17 GMT id:180 1533042977568 MAVLINK_MSG_ID_CAMERA_FEEDBACK - time_usec:1533042992611248 lat:509572110 lng:311710305 alt_msl:370.41 alt_rel:250.31 roll:-1.75 pitch:-1.86 yaw:47.6 foc_len:0.0 img_idx:36 target_system:0 cam_idx:0 flags:0
event time 31 Jul 2018 13:16:28 GMT id:180 1533042988176 MAVLINK_MSG_ID_CAMERA_FEEDBACK - time_usec:1533045624483912 lat:509577636 lng:311721615 alt_msl:368.78 alt_rel:248.68 roll:-4.67 pitch:-1.6 yaw:53.63 foc_len:0.0 img_idx:37 target_system:0 cam_idx:0 flags:0
event time 31 Jul 2018 13:16:39 GMT id:180 1533042999268 MAVLINK_MSG_ID_CAMERA_FEEDBACK - time_usec:1533045618727696 lat:509582775 lng:311733397 alt_msl:372.2 alt_rel:252.1 roll:-4.05 pitch:-2.64 yaw:54.62 foc_len:0.0 img_idx:38 target_system:0 cam_idx:0 flags:0
event time 31 Jul 2018 13:16:50 GMT id:180 1533043010219 MAVLINK_MSG_ID_CAMERA_FEEDBACK - time_usec:1533043026165728 lat:509587666 lng:311745609 alt_msl:368.65 alt_rel:248.55 roll:-3.43 pitch:-4.2 yaw:58.5 foc_len:0.0 img_idx:39 target_system:0 cam_idx:0 flags:0
event time 31 Jul 2018 13:17:00 GMT id:180 1533043020234 MAVLINK_MSG_ID_CAMERA_FEEDBACK - time_usec:1533045623029696 lat:509593469 lng:311756839 alt_msl:368.33 alt_rel:248.23 roll:4.08 pitch:0.36 yaw:47.7 foc_len:0.0 img_idx:40 target_system:0 cam_idx:0 flags:0
event time 31 Jul 2018 13:17:09 GMT id:180 1533043029828 MAVLINK_MSG_ID_CAMERA_FEEDBACK - time_usec:1533043032063984 lat:509598530 lng:311768801 alt_msl:375.5 alt_rel:255.4 roll:-0.34 pitch:-7.2 yaw:62.23 foc_len:0.0 img_idx:41 target_system:0 cam_idx:0 flags:0
event time 31 Jul 2018 13:17:19 GMT id:180 1533043039765 MAVLINK_MSG_ID_CAMERA_FEEDBACK - time_usec:1533045625734264 lat:509603645 lng:311780697 alt_msl:367.61 alt_rel:247.51 roll:-4.28 pitch:-4.77 yaw:63.99 foc_len:0.0 img_idx:42 target_system:0 cam_idx:0 flags:0
event time 31 Jul 2018 13:17:30 GMT id:180 1533043050358 MAVLINK_MSG_ID_CAMERA_FEEDBACK - time_usec:1533045619575048 lat:509608934 lng:311792395 alt_msl:365.82 alt_rel:245.72 roll:-0.42 pitch:1.45 yaw:57.65 foc_len:0.0 img_idx:43 target_system:0 cam_idx:0 flags:0
event time 31 Jul 2018 13:17:40 GMT id:180 1533043060857 MAVLINK_MSG_ID_CAMERA_FEEDBACK - time_usec:1533043063081000 lat:509614343 lng:311803871 alt_msl:371.16 alt_rel:251.06 roll:-1.77 pitch:-2.45 yaw:53.91 foc_len:0.0 img_idx:44 target_system:0 cam_idx:0 flags:0
event time 31 Jul 2018 13:17:51 GMT id:180 1533043071714 MAVLINK_MSG_ID_CAMERA_FEEDBACK - time_usec:1533045624078256 lat:509619767 lng:311815337 alt_msl:372.24 alt_rel:252.14 roll:-3.07 pitch:-4.31 yaw:55.61 foc_len:0.0 img_idx:45 target_system:0 cam_idx:0 flags:0
event time 31 Jul 2018 13:18:01 GMT id:180 1533043081511 MAVLINK_MSG_ID_CAMERA_FEEDBACK - time_usec:1533043083721000 lat:509625410 lng:311826554 alt_msl:371.0 alt_rel:250.9 roll:4.68 pitch:-2.87 yaw:52.62 foc_len:0.0 img_idx:46 target_system:0 cam_idx:0 flags:0
event time 31 Jul 2018 13:18:10 GMT id:180 1533043090856 MAVLINK_MSG_ID_CAMERA_FEEDBACK - time_usec:1533045626402616 lat:509631247 lng:311837464 alt_msl:374.59 alt_rel:254.49 roll:2.12 pitch:-4.58 yaw:47.09 foc_len:0.0 img_idx:47 target_system:0 cam_idx:0 flags:0
event time 31 Jul 2018 13:18:21 GMT id:180 1533043101245 MAVLINK_MSG_ID_CAMERA_FEEDBACK - time_usec:1533045620045400 lat:509636774 lng:311849002 alt_msl:367.61 alt_rel:247.51 roll:0.75 pitch:-0.82 yaw:49.7 foc_len:0.0 img_idx:48 target_system:0 cam_idx:0 flags:0
event time 31 Jul 2018 13:18:32 GMT id:180 1533043112586 MAVLINK_MSG_ID_CAMERA_FEEDBACK - time_usec:1533043126829032 lat:509642610 lng:311859858 alt_msl:368.08 alt_rel:247.98 roll:-3.92 pitch:0.23 yaw:54.08 foc_len:0.0 img_idx:49 target_system:0 cam_idx:0 flags:0
event time 31 Jul 2018 13:18:43 GMT id:180 1533043123647 MAVLINK_MSG_ID_CAMERA_FEEDBACK - time_usec:1533045626634136 lat:509648583 lng:311870604 alt_msl:368.57 alt_rel:248.47 roll:2.05 pitch:0.33 yaw:48.29 foc_len:0.0 img_idx:50 target_system:0 cam_idx:0 flags:0
event time 31 Jul 2018 13:18:54 GMT id:180 1533043134801 MAVLINK_MSG_ID_CAMERA_FEEDBACK - time_usec:1533045620211664 lat:509654474 lng:311881719 alt_msl:370.36 alt_rel:250.26 roll:-3.24 pitch:-0.16 yaw:48.56 foc_len:0.0 img_idx:51 target_system:0 cam_idx:0 flags:0
event time 31 Jul 2018 13:19:05 GMT id:180 1533043145003 MAVLINK_MSG_ID_CAMERA_FEEDBACK - time_usec:1533043147241000 lat:509660433 lng:311892432 alt_msl:372.38 alt_rel:252.28 roll:-1.47 pitch:-1.34 yaw:49.71 foc_len:0.0 img_idx:52 target_system:0 cam_idx:0 flags:0
event time 31 Jul 2018 13:19:15 GMT id:180 1533043155174 MAVLINK_MSG_ID_CAMERA_FEEDBACK - time_usec:1533045623750592 lat:509666179 lng:311903542 alt_msl:370.06 alt_rel:249.96 roll:0.08 pitch:-1.72 yaw:53.33 foc_len:0.0 img_idx:53 target_system:0 cam_idx:0 flags:0
event time 31 Jul 2018 13:19:25 GMT id:180 1533043165861 MAVLINK_MSG_ID_CAMERA_FEEDBACK - time_usec:1533043168081000 lat:509672263 lng:311914410 alt_msl:371.36 alt_rel:251.26 roll:-0.38 pitch:-2.53 yaw:45.7 foc_len:0.0 img_idx:54 target_system:0 cam_idx:0 flags:0
event time 31 Jul 2018 13:19:36 GMT id:180 1533043176016 MAVLINK_MSG_ID_CAMERA_FEEDBACK - time_usec:1533043178300000 lat:509678304 lng:311925328 alt_msl:370.71 alt_rel:250.61 roll:-2.55 pitch:-2.65 yaw:50.14 foc_len:0.0 img_idx:55 target_system:0 cam_idx:0 flags:0
event time 31 Jul 2018 13:19:46 GMT id:180 1533043186499 MAVLINK_MSG_ID_CAMERA_FEEDBACK - time_usec:1533045621456768 lat:509684169 lng:311936429 alt_msl:368.41 alt_rel:248.31 roll:-0.3 pitch:-2.54 yaw:50.37 foc_len:0.0 img_idx:56 target_system:0 cam_idx:0 flags:0
event time 31 Jul 2018 13:19:56 GMT id:180 1533043196437 MAVLINK_MSG_ID_CAMERA_FEEDBACK - time_usec:1533043210715008 lat:509689993 lng:311947319 alt_msl:369.99 alt_rel:249.89 roll:1.23 pitch:-2.35 yaw:50.91 foc_len:0.0 img_idx:57 target_system:0 cam_idx:0 flags:0
event time 31 Jul 2018 13:20:05 GMT id:180 1533043205453 MAVLINK_MSG_ID_CAMERA_FEEDBACK - time_usec:1533045623619504 lat:509695895 lng:311958094 alt_msl:370.86 alt_rel:250.76 roll:1.24 pitch:-0.05 yaw:53.2 foc_len:0.0 img_idx:58 target_system:0 cam_idx:0 flags:0
event time 31 Jul 2018 13:20:15 GMT id:180 1533043215235 MAVLINK_MSG_ID_CAMERA_FEEDBACK - time_usec:1533043217480000 lat:509701915 lng:311969094 alt_msl:370.36 alt_rel:250.26 roll:0.33 pitch:-1.25 yaw:46.6 foc_len:0.0 img_idx:59 target_system:0 cam_idx:0 flags:0
event time 31 Jul 2018 13:20:25 GMT id:180 1533043225031 MAVLINK_MSG_ID_CAMERA_FEEDBACK - time_usec:1533045626503072 lat:509707433 lng:311980557 alt_msl:369.94 alt_rel:249.84 roll:-6.31 pitch:-2.51 yaw:52.76 foc_len:0.0 img_idx:60 target_system:0 cam_idx:0 flags:0
event time 31 Jul 2018 13:20:34 GMT id:180 1533043234844 MAVLINK_MSG_ID_CAMERA_FEEDBACK - time_usec:1533045626634216 lat:509713602 lng:311991100 alt_msl:369.97 alt_rel:249.87 roll:2.54 pitch:-3.05 yaw:48.46 foc_len:0.0 img_idx:61 target_system:0 cam_idx:0 flags:0
event time 31 Jul 2018 13:20:45 GMT id:180 1533043245015 MAVLINK_MSG_ID_CAMERA_FEEDBACK - time_usec:1533043247241000 lat:509719282 lng:312002461 alt_msl:368.45 alt_rel:248.35 roll:-0.49 pitch:-1.44 yaw:49.47 foc_len:0.0 img_idx:62 target_system:0 cam_idx:0 flags:0
event time 31 Jul 2018 13:20:54 GMT id:180 1533043254359 MAVLINK_MSG_ID_CAMERA_FEEDBACK - time_usec:1533045622308824 lat:509725388 lng:312013044 alt_msl:368.78 alt_rel:248.68 roll:-3.33 pitch:0.49 yaw:47.94 foc_len:0.0 img_idx:63 target_system:0 cam_idx:0 flags:0
event time 31 Jul 2018 13:21:04 GMT id:180 1533043264297 MAVLINK_MSG_ID_CAMERA_FEEDBACK - time_usec:1533043266503000 lat:509731211 lng:312024128 alt_msl:369.57 alt_rel:249.47 roll:-3.39 pitch:0.26 yaw:52.21 foc_len:0.0 img_idx:64 target_system:0 cam_idx:0 flags:0
event time 31 Jul 2018 13:21:13 GMT id:180 1533043273844 MAVLINK_MSG_ID_CAMERA_FEEDBACK - time_usec:1533045626634120 lat:509737219 lng:312034931 alt_msl:370.64 alt_rel:250.54 roll:5.3 pitch:1.99 yaw:52.76 foc_len:0.0 img_idx:65 target_system:0 cam_idx:0 flags:0
event time 31 Jul 2018 13:21:24 GMT id:180 1533043284031 MAVLINK_MSG_ID_CAMERA_FEEDBACK - time_usec:1533045626634112 lat:509743026 lng:312045958 alt_msl:371.12 alt_rel:251.02 roll:1.33 pitch:0.0 yaw:48.88 foc_len:0.0 img_idx:66 target_system:0 cam_idx:0 flags:0
event time 31 Jul 2018 13:21:34 GMT id:180 1533043294296 MAVLINK_MSG_ID_CAMERA_FEEDBACK - time_usec:1533043311366208 lat:509749016 lng:312056799 alt_msl:369.26 alt_rel:249.16 roll:3.18 pitch:-0.68 yaw:53.45 foc_len:0.0 img_idx:67 target_system:0 cam_idx:0 flags:0
event time 31 Jul 2018 13:21:43 GMT id:180 1533043303983 MAVLINK_MSG_ID_CAMERA_FEEDBACK - time_usec:1533045626634168 lat:509754950 lng:312067717 alt_msl:369.58 alt_rel:249.48 roll:-5.97 pitch:-1.19 yaw:45.31 foc_len:0.0 img_idx:68 target_system:0 cam_idx:0 flags:0
event time 31 Jul 2018 13:21:53 GMT id:180 1533043313421 MAVLINK_MSG_ID_CAMERA_FEEDBACK - time_usec:1533043315703776 lat:509760769 lng:312078802 alt_msl:368.73 alt_rel:248.63 roll:2.39 pitch:2.25 yaw:54.96 foc_len:0.0 img_idx:69 target_system:0 cam_idx:0 flags:0
event time 31 Jul 2018 13:22:05 GMT id:180 1533043325667 MAVLINK_MSG_ID_CAMERA_FEEDBACK - time_usec:1533045626620736 lat:509759701 lng:312093100 alt_msl:369.54 alt_rel:249.44 roll:-5.93 pitch:0.24 yaw:131.56 foc_len:0.0 img_idx:70 target_system:0 cam_idx:0 flags:0
event time 31 Jul 2018 13:22:12 GMT id:180 1533043332843 MAVLINK_MSG_ID_CAMERA_FEEDBACK - time_usec:1533043344931400 lat:509752369 lng:312101420 alt_msl:370.6 alt_rel:250.5 roll:1.41 pitch:0.17 yaw:141.67 foc_len:0.0 img_idx:71 target_system:0 cam_idx:0 flags:0
event time 31 Jul 2018 13:22:20 GMT id:180 1533043340097 MAVLINK_MSG_ID_CAMERA_FEEDBACK - time_usec:1533045624078208 lat:509744633 lng:312108990 alt_msl:371.63 alt_rel:251.53 roll:1.23 pitch:-3.78 yaw:142.96 foc_len:0.0 img_idx:72 target_system:0 cam_idx:0 flags:0
event time 31 Jul 2018 13:22:27 GMT id:180 1533043347601 MAVLINK_MSG_ID_CAMERA_FEEDBACK - time_usec:1533043361683016 lat:509736867 lng:312116691 alt_msl:372.11 alt_rel:252.01 roll:-0.03 pitch:-4.18 yaw:147.02 foc_len:0.0 img_idx:73 target_system:0 cam_idx:0 flags:0
event time 31 Jul 2018 13:22:35 GMT id:180 1533043355432 MAVLINK_MSG_ID_CAMERA_FEEDBACK - time_usec:1533045626634208 lat:509729281 lng:312124874 alt_msl:370.73 alt_rel:250.63 roll:-0.77 pitch:-2.56 yaw:150.7 foc_len:0.0 img_idx:74 target_system:0 cam_idx:0 flags:0
event time 31 Jul 2018 13:22:42 GMT id:180 1533043362577 MAVLINK_MSG_ID_CAMERA_FEEDBACK - time_usec:1533043364863000 lat:509721483 lng:312132703 alt_msl:367.4 alt_rel:247.3 roll:-2.89 pitch:1.56 yaw:152.63 foc_len:0.0 img_idx:75 target_system:0 cam_idx:0 flags:0
event time 31 Jul 2018 13:22:49 GMT id:180 1533043369160 MAVLINK_MSG_ID_CAMERA_FEEDBACK - time_usec:1533045619687360 lat:509712533 lng:312135088 alt_msl:370.18 alt_rel:250.08 roll:43.24 pitch:-0.77 yaw:243.82 foc_len:0.0 img_idx:76 target_system:0 cam_idx:0 flags:0
event time 31 Jul 2018 13:22:58 GMT id:180 1533043378052 MAVLINK_MSG_ID_CAMERA_FEEDBACK - time_usec:1533043395264456 lat:509719267 lng:312125495 alt_msl:369.69 alt_rel:249.59 roll:-18.4 pitch:1.33 yaw:14.36 foc_len:0.0 img_idx:77 target_system:0 cam_idx:0 flags:0
event time 31 Jul 2018 13:23:04 GMT id:180 1533043384495 MAVLINK_MSG_ID_CAMERA_FEEDBACK - time_usec:1533043386810336 lat:509726357 lng:312116173 alt_msl:369.37 alt_rel:249.27 roll:0.49 pitch:0.78 yaw:318.69 foc_len:0.0 img_idx:78 target_system:0 cam_idx:0 flags:0
event time 31 Jul 2018 13:23:09 GMT id:180 1533043389924 MAVLINK_MSG_ID_CAMERA_FEEDBACK - time_usec:1533045626607384 lat:509730581 lng:312103194 alt_msl:368.6 alt_rel:248.5 roll:7.6 pitch:-1.67 yaw:301.25 foc_len:0.0 img_idx:79 target_system:0 cam_idx:0 flags:0
event time 31 Jul 2018 13:23:15 GMT id:180 1533043395134 MAVLINK_MSG_ID_CAMERA_FEEDBACK - time_usec:1533043397492712 lat:509735427 lng:312090795 alt_msl:369.95 alt_rel:249.85 roll:1.07 pitch:0.83 yaw:300.87 foc_len:0.0 img_idx:80 target_system:0 cam_idx:0 flags:0
event time 31 Jul 2018 13:23:20 GMT id:180 1533043400220 MAVLINK_MSG_ID_CAMERA_FEEDBACK - time_usec:1533043412041720 lat:509740376 lng:312077868 alt_msl:370.39 alt_rel:250.29 roll:0.41 pitch:0.93 yaw:296.87 foc_len:0.0 img_idx:81 target_system:0 cam_idx:0 flags:0
event time 31 Jul 2018 13:23:24 GMT id:180 1533043404962 MAVLINK_MSG_ID_CAMERA_FEEDBACK - time_usec:1533045621853512 lat:509744694 lng:312065334 alt_msl:371.48 alt_rel:251.38 roll:-2.19 pitch:0.28 yaw:300.8 foc_len:0.0 img_idx:82 target_system:0 cam_idx:0 flags:0
event time 31 Jul 2018 13:23:30 GMT id:180 1533043410001 MAVLINK_MSG_ID_CAMERA_FEEDBACK - time_usec:1533043428818856 lat:509749533 lng:312052874 alt_msl:371.12 alt_rel:251.02 roll:16.54 pitch:0.58 yaw:309.94 foc_len:0.0 img_idx:83 target_system:0 cam_idx:0 flags:0
event time 31 Jul 2018 13:23:35 GMT id:180 1533043415414 MAVLINK_MSG_ID_CAMERA_FEEDBACK - time_usec:1533043417681000 lat:509756783 lng:312044222 alt_msl:369.67 alt_rel:249.57 roll:-3.09 pitch:1.89 yaw:325.15 foc_len:0.0 img_idx:84 target_system:0 cam_idx:0 flags:0
event time 31 Jul 2018 13:23:40 GMT id:180 1533043420999 MAVLINK_MSG_ID_CAMERA_FEEDBACK - time_usec:1533045626634120 lat:509764238 lng:312035643 alt_msl:370.28 alt_rel:250.18 roll:-5.76 pitch:0.17 yaw:324.4 foc_len:0.0 img_idx:85 target_system:0 cam_idx:0 flags:0
event time 31 Jul 2018 13:23:46 GMT id:180 1533043426802 MAVLINK_MSG_ID_CAMERA_FEEDBACK - time_usec:1533043429146592 lat:509771615 lng:312027070 alt_msl:369.44 alt_rel:249.34 roll:6.97 pitch:2.29 yaw:339.96 foc_len:0.0 img_idx:86 target_system:0 cam_idx:0 flags:0
event time 31 Jul 2018 13:23:53 GMT id:180 1533043433417 MAVLINK_MSG_ID_CAMERA_FEEDBACK - time_usec:1533043435765728 lat:509780014 lng:312021801 alt_msl:368.01 alt_rel:247.91 roll:-2.24 pitch:1.31 yaw:336.8 foc_len:0.0 img_idx:87 target_system:0 cam_idx:0 flags:0
event time 31 Jul 2018 13:23:59 GMT id:180 1533043439781 MAVLINK_MSG_ID_CAMERA_FEEDBACK - time_usec:1533045626634176 lat:509786308 lng:312011251 alt_msl:370.87 alt_rel:250.77 roll:-16.14 pitch:-2.52 yaw:270.7 foc_len:0.0 img_idx:88 target_system:0 cam_idx:0 flags:0
event time 31 Jul 2018 13:24:04 GMT id:180 1533043444508 MAVLINK_MSG_ID_CAMERA_FEEDBACK - time_usec:1533043462373288 lat:509784142 lng:311997397 alt_msl:371.71 alt_rel:251.61 roll:6.91 pitch:-4.73 yaw:229.17 foc_len:0.0 img_idx:89 target_system:0 cam_idx:0 flags:0
event time 31 Jul 2018 13:24:09 GMT id:180 1533043449017 MAVLINK_MSG_ID_CAMERA_FEEDBACK - time_usec:1533043451297760 lat:509782856 lng:311982854 alt_msl:368.47 alt_rel:248.37 roll:1.92 pitch:1.42 yaw:279.85 foc_len:0.0 img_idx:90 target_system:0 cam_idx:0 flags:0
event time 31 Jul 2018 13:24:13 GMT id:180 1533043453634 MAVLINK_MSG_ID_CAMERA_FEEDBACK - time_usec:1533045626634200 lat:509784249 lng:311968158 alt_msl:368.08 alt_rel:247.98 roll:-2.14 pitch:-0.99 yaw:276.7 foc_len:0.0 img_idx:91 target_system:0 cam_idx:0 flags:0
event time 31 Jul 2018 13:24:18 GMT id:180 1533043458002 MAVLINK_MSG_ID_CAMERA_FEEDBACK - time_usec:1533045626634120 lat:509785363 lng:311953831 alt_msl:366.46 alt_rel:246.36 roll:1.31 pitch:-1.0 yaw:273.53 foc_len:0.0 img_idx:92 target_system:0 cam_idx:0 flags:0
event time 31 Jul 2018 13:24:22 GMT id:180 1533043462620 MAVLINK_MSG_ID_CAMERA_FEEDBACK - time_usec:1533043464881000 lat:509786632 lng:311939444 alt_msl:361.23 alt_rel:241.13 roll:1.86 pitch:-2.36 yaw:278.52 foc_len:0.0 img_idx:93 target_system:0 cam_idx:0 flags:0
event time 31 Jul 2018 13:24:27 GMT id:180 1533043467253 MAVLINK_MSG_ID_CAMERA_FEEDBACK - time_usec:1533043469481000 lat:509788049 lng:311925068 alt_msl:357.65 alt_rel:237.55 roll:-4.82 pitch:-3.63 yaw:277.53 foc_len:0.0 img_idx:94 target_system:0 cam_idx:0 flags:0
event time 31 Jul 2018 13:24:32 GMT id:180 1533043472073 MAVLINK_MSG_ID_CAMERA_FEEDBACK - time_usec:1533045626613312 lat:509788320 lng:311910321 alt_msl:360.56 alt_rel:240.46 roll:-0.21 pitch:-1.1 yaw:261.44 foc_len:0.0 img_idx:95 target_system:0 cam_idx:0 flags:0
event time 31 Jul 2018 13:24:36 GMT id:180 1533043476800 MAVLINK_MSG_ID_CAMERA_FEEDBACK - time_usec:1533045626584648 lat:509787505 lng:311895965 alt_msl:357.47 alt_rel:237.37 roll:3.04 pitch:-5.83 yaw:264.35 foc_len:0.0 img_idx:96 target_system:0 cam_idx:0 flags:0
event time 31 Jul 2018 13:24:41 GMT id:180 1533043481402 MAVLINK_MSG_ID_CAMERA_FEEDBACK - time_usec:1533816577814280 lat:509787548 lng:311881555 alt_msl:350.23 alt_rel:230.13 roll:-0.14 pitch:-4.69 yaw:274.69 foc_len:0.0 img_idx:97 target_system:0 cam_idx:0 flags:0
event time 31 Jul 2018 13:24:45 GMT id:180 1533043485817 MAVLINK_MSG_ID_CAMERA_FEEDBACK - time_usec:1533818720747432 lat:509787984 lng:311867257 alt_msl:344.26 alt_rel:224.16 roll:2.2 pitch:-5.24 yaw:272.06 foc_len:0.0 img_idx:98 target_system:0 cam_idx:0 flags:0
event time 31 Jul 2018 13:24:50 GMT id:180 1533043490575 MAVLINK_MSG_ID_CAMERA_FEEDBACK - time_usec:1533818720747504 lat:509788412 lng:311852370 alt_msl:338.7 alt_rel:218.6 roll:-1.64 pitch:-3.11 yaw:276.35 foc_len:0.0 img_idx:99 target_system:0 cam_idx:0 flags:0
event time 31 Jul 2018 13:24:54 GMT id:180 1533043494927 MAVLINK_MSG_ID_CAMERA_FEEDBACK - time_usec:1533816591356280 lat:509789034 lng:311837874 alt_msl:333.63 alt_rel:213.53 roll:-1.37 pitch:-3.91 yaw:280.39 foc_len:0.0 img_idx:100 target_system:0 cam_idx:0 flags:0
event time 31 Jul 2018 13:24:59 GMT id:180 1533043499529 MAVLINK_MSG_ID_CAMERA_FEEDBACK - time_usec:1533816606788720 lat:509789816 lng:311823429 alt_msl:329.42 alt_rel:209.32 roll:1.45 pitch:-1.93 yaw:277.53 foc_len:0.0 img_idx:101 target_system:0 cam_idx:0 flags:0
event time 31 Jul 2018 13:25:04 GMT id:180 1533043504256 MAVLINK_MSG_ID_CAMERA_FEEDBACK - time_usec:1533818720732416 lat:509790737 lng:311809129 alt_msl:327.94 alt_rel:207.84 roll:2.47 pitch:-5.05 yaw:274.95 foc_len:0.0 img_idx:102 target_system:0 cam_idx:0 flags:0
event time 31 Jul 2018 13:25:08 GMT id:180 1533043508780 MAVLINK_MSG_ID_CAMERA_FEEDBACK - time_usec:1533818719124496 lat:509791612 lng:311794833 alt_msl:323.17 alt_rel:203.07 roll:-3.38 pitch:-5.28 yaw:275.69 foc_len:0.0 img_idx:103 target_system:0 cam_idx:0 flags:0
event time 31 Jul 2018 13:25:13 GMT id:180 1533043513382 MAVLINK_MSG_ID_CAMERA_FEEDBACK - time_usec:1533816609832936 lat:509792297 lng:311780237 alt_msl:320.04 alt_rel:199.94 roll:1.04 pitch:-3.92 yaw:277.46 foc_len:0.0 img_idx:104 target_system:0 cam_idx:0 flags:0
event time 31 Jul 2018 13:25:18 GMT id:180 1533043518031 MAVLINK_MSG_ID_CAMERA_FEEDBACK - time_usec:1533816623595432 lat:509793023 lng:311765880 alt_msl:315.69 alt_rel:195.59 roll:-4.03 pitch:-2.88 yaw:271.57 foc_len:0.0 img_idx:105 target_system:0 cam_idx:0 flags:0
event time 31 Jul 2018 13:25:22 GMT id:180 1533043522618 MAVLINK_MSG_ID_CAMERA_FEEDBACK - time_usec:1533818716225416 lat:509793529 lng:311751216 alt_msl:312.45 alt_rel:192.35 roll:-4.01 pitch:-2.21 yaw:270.16 foc_len:0.0 img_idx:106 target_system:0 cam_idx:0 flags:0
event time 31 Jul 2018 13:25:27 GMT id:180 1533043527235 MAVLINK_MSG_ID_CAMERA_FEEDBACK - time_usec:1533816623613280 lat:509794314 lng:311736585 alt_msl:309.88 alt_rel:189.78 roll:0.82 pitch:-5.74 yaw:277.46 foc_len:0.0 img_idx:107 target_system:0 cam_idx:0 flags:0
event time 31 Jul 2018 13:25:31 GMT id:180 1533043531853 MAVLINK_MSG_ID_CAMERA_FEEDBACK - time_usec:1533816628248560 lat:509795120 lng:311722262 alt_msl:304.4 alt_rel:184.3 roll:1.3 pitch:-3.5 yaw:273.44 foc_len:0.0 img_idx:108 target_system:0 cam_idx:0 flags:0
event time 31 Jul 2018 13:25:36 GMT id:180 1533043536689 MAVLINK_MSG_ID_CAMERA_FEEDBACK - time_usec:1533818713410064 lat:509796137 lng:311707670 alt_msl:301.96 alt_rel:181.86 roll:2.88 pitch:-5.21 yaw:271.9 foc_len:0.0 img_idx:109 target_system:0 cam_idx:0 flags:0
event time 31 Jul 2018 13:25:41 GMT id:180 1533043541540 MAVLINK_MSG_ID_CAMERA_FEEDBACK - time_usec:1533818718328064 lat:509796800 lng:311693005 alt_msl:300.48 alt_rel:180.38 roll:1.87 pitch:-9.96 yaw:270.26 foc_len:0.0 img_idx:110 target_system:0 cam_idx:0 flags:0
event time 31 Jul 2018 13:25:46 GMT id:180 1533043546158 MAVLINK_MSG_ID_CAMERA_FEEDBACK - time_usec:1533816642600896 lat:509797081 lng:311678316 alt_msl:291.64 alt_rel:171.54 roll:1.83 pitch:-7.12 yaw:272.91 foc_len:0.0 img_idx:111 target_system:0 cam_idx:0 flags:0
event time 31 Jul 2018 13:25:50 GMT id:180 1533043550526 MAVLINK_MSG_ID_CAMERA_FEEDBACK - time_usec:1533816646955280 lat:509797364 lng:311663611 alt_msl:284.6 alt_rel:164.5 roll:4.35 pitch:-5.05 yaw:273.13 foc_len:0.0 img_idx:112 target_system:0 cam_idx:0 flags:0
event time 31 Jul 2018 13:25:55 GMT id:180 1533043555144 MAVLINK_MSG_ID_CAMERA_FEEDBACK - time_usec:1533818720742408 lat:509797799 lng:311648998 alt_msl:280.41 alt_rel:160.31 roll:2.75 pitch:-3.28 yaw:271.15 foc_len:0.0 img_idx:113 target_system:0 cam_idx:0 flags:0
event time 31 Jul 2018 13:25:59 GMT id:180 1533043559777 MAVLINK_MSG_ID_CAMERA_FEEDBACK - time_usec:1533818719829984 lat:509798187 lng:311634639 alt_msl:276.19 alt_rel:156.09 roll:0.0 pitch:0.33 yaw:269.13 foc_len:0.0 img_idx:114 target_system:0 cam_idx:0 flags:0
event time 31 Jul 2018 13:26:04 GMT id:180 1533043564613 MAVLINK_MSG_ID_CAMERA_FEEDBACK - time_usec:1533816673903872 lat:509798425 lng:311619839 alt_msl:275.18 alt_rel:155.08 roll:-3.26 pitch:-0.42 yaw:268.8 foc_len:0.0 img_idx:115 target_system:0 cam_idx:0 flags:0
event time 31 Jul 2018 13:26:09 GMT id:180 1533043569355 MAVLINK_MSG_ID_CAMERA_FEEDBACK - time_usec:1533818720747496 lat:509798546 lng:311605038 alt_msl:271.83 alt_rel:151.73 roll:-2.15 pitch:-1.48 yaw:270.63 foc_len:0.0 img_idx:116 target_system:0 cam_idx:0 flags:0
event time 31 Jul 2018 13:26:14 GMT id:180 1533043574082 MAVLINK_MSG_ID_CAMERA_FEEDBACK - time_usec:1533818717274024 lat:509798570 lng:311590436 alt_msl:270.07 alt_rel:149.97 roll:1.14 pitch:-3.74 yaw:268.71 foc_len:0.0 img_idx:117 target_system:0 cam_idx:0 flags:0
event time 31 Jul 2018 13:26:18 GMT id:180 1533043578575 MAVLINK_MSG_ID_CAMERA_FEEDBACK - time_usec:1533816690704288 lat:509798373 lng:311575674 alt_msl:265.49 alt_rel:145.39 roll:-3.56 pitch:-5.06 yaw:263.76 foc_len:0.0 img_idx:118 target_system:0 cam_idx:0 flags:0
event time 31 Jul 2018 13:26:22 GMT id:180 1533043582990 MAVLINK_MSG_ID_CAMERA_FEEDBACK - time_usec:1533816690704368 lat:509797711 lng:311561368 alt_msl:260.43 alt_rel:140.33 roll:-2.61 pitch:-3.34 yaw:266.83 foc_len:0.0 img_idx:119 target_system:0 cam_idx:0 flags:0
event time 31 Jul 2018 13:26:27 GMT id:180 1533043587701 MAVLINK_MSG_ID_CAMERA_FEEDBACK - time_usec:1533818720722552 lat:509797114 lng:311546674 alt_msl:255.0 alt_rel:134.9 roll:-0.62 pitch:-2.75 yaw:268.82 foc_len:0.0 img_idx:120 target_system:0 cam_idx:0 flags:0
event time 31 Jul 2018 13:26:32 GMT id:180 1533043592303 MAVLINK_MSG_ID_CAMERA_FEEDBACK - time_usec:1533818718715792 lat:509796284 lng:311532149 alt_msl:249.41 alt_rel:129.31 roll:-1.03 pitch:-0.41 yaw:265.27 foc_len:0.0 img_idx:121 target_system:0 cam_idx:0 flags:0
event time 31 Jul 2018 13:26:37 GMT id:180 1533043597014 MAVLINK_MSG_ID_CAMERA_FEEDBACK - time_usec:1533816693355280 lat:509795435 lng:311517428 alt_msl:245.33 alt_rel:125.23 roll:-4.8 pitch:0.81 yaw:264.24 foc_len:0.0 img_idx:122 target_system:0 cam_idx:0 flags:0
event time 31 Jul 2018 13:26:41 GMT id:180 1533043601647 MAVLINK_MSG_ID_CAMERA_FEEDBACK - time_usec:1533816707450464 lat:509794225 lng:311502715 alt_msl:241.3 alt_rel:121.2 roll:-1.37 pitch:1.26 yaw:261.49 foc_len:0.0 img_idx:123 target_system:0 cam_idx:0 flags:0
event time 31 Jul 2018 13:26:45 GMT id:180 1533043605812 MAVLINK_MSG_ID_CAMERA_FEEDBACK - time_usec:1533818715441200 lat:509792814 lng:311488570 alt_msl:238.93 alt_rel:118.83 roll:-1.93 pitch:-1.32 yaw:259.79 foc_len:0.0 img_idx:124 target_system:0 cam_idx:0 flags:0
event time 31 Jul 2018 13:26:50 GMT id:180 1533043610196 MAVLINK_MSG_ID_CAMERA_FEEDBACK - time_usec:1533818719895448 lat:509791026 lng:311474377 alt_msl:237.14 alt_rel:117.04 roll:-1.22 pitch:-2.67 yaw:255.79 foc_len:0.0 img_idx:125 target_system:0 cam_idx:0 flags:0
event time 31 Jul 2018 13:26:54 GMT id:180 1533043614549 MAVLINK_MSG_ID_CAMERA_FEEDBACK - time_usec:1533816710973280 lat:509789032 lng:311460093 alt_msl:234.39 alt_rel:114.29 roll:-4.15 pitch:-3.71 yaw:254.05 foc_len:0.0 img_idx:126 target_system:0 cam_idx:0 flags:0
event time 31 Jul 2018 13:26:58 GMT id:180 1533043618948 MAVLINK_MSG_ID_CAMERA_FEEDBACK - time_usec:1533816724240640 lat:509785927 lng:311446361 alt_msl:226.48 alt_rel:106.38 roll:-28.81 pitch:-7.08 yaw:227.7 foc_len:0.0 img_idx:127 target_system:0 cam_idx:0 flags:0
event time 31 Jul 2018 13:27:04 GMT id:180 1533043624595 MAVLINK_MSG_ID_CAMERA_FEEDBACK - time_usec:1533818717536232 lat:509777277 lng:311442087 alt_msl:222.99 alt_rel:102.89 roll:6.69 pitch:-2.9 yaw:162.06 foc_len:0.0 img_idx:128 target_system:0 cam_idx:0 flags:0
event time 31 Jul 2018 13:27:10 GMT id:180 1533043630476 MAVLINK_MSG_ID_CAMERA_FEEDBACK - time_usec:1533816741035592 lat:509768747 lng:311436700 alt_msl:212.93 alt_rel:92.83 roll:24.95 pitch:-12.91 yaw:240.2 foc_len:0.0 img_idx:129 target_system:0 cam_idx:0 flags:0
event time 31 Jul 2018 13:27:15 GMT id:180 1533043635000 MAVLINK_MSG_ID_CAMERA_FEEDBACK - time_usec:1533816731434280 lat:509767976 lng:311422236 alt_msl:204.7 alt_rel:84.6 roll:31.51 pitch:-10.04 yaw:318.37 foc_len:0.0 img_idx:130 target_system:0 cam_idx:0 flags:0
event time 31 Jul 2018 13:27:22 GMT id:180 1533043642956 MAVLINK_MSG_ID_CAMERA_FEEDBACK - time_usec:1533818719109008 lat:509777117 lng:311421230 alt_msl:180.96 alt_rel:60.86 roll:-13.7 pitch:-0.88 yaw:61.92 foc_len:0.0 img_idx:131 target_system:0 cam_idx:0 flags:0
event time 31 Jul 2018 13:27:29 GMT id:180 1533043649742 MAVLINK_MSG_ID_CAMERA_FEEDBACK - time_usec:1533816746153280 lat:509785208 lng:311413994 alt_msl:168.55 alt_rel:48.45 roll:-15.22 pitch:-4.83 yaw:331.13 foc_len:0.0 img_idx:132 target_system:0 cam_idx:0 flags:0
event time 31 Jul 2018 13:27:34 GMT id:180 1533043654609 MAVLINK_MSG_ID_CAMERA_FEEDBACK - time_usec:1533818713931768 lat:509785411 lng:311399657 alt_msl:160.21 alt_rel:40.11 roll:-32.35 pitch:-3.34 yaw:225.15 foc_len:0.0 img_idx:133 target_system:0 cam_idx:0 flags:0
event time 31 Jul 2018 13:27:43 GMT id:180 1533043663127 MAVLINK_MSG_ID_CAMERA_FEEDBACK - time_usec:1533816774590424 lat:509776749 lng:311403466 alt_msl:146.94 alt_rel:26.84 roll:10.18 pitch:-4.54 yaw:127.2 foc_len:0.0 img_idx:134 target_system:0 cam_idx:0 flags:0
event time 31 Jul 2018 13:27:53 GMT id:180 1533043673875 MAVLINK_MSG_ID_CAMERA_FEEDBACK - time_usec:1533818720747392 lat:509780479 lng:311416607 alt_msl:130.57 alt_rel:10.47 roll:30.66 pitch:-7.31 yaw:46.62 foc_len:0.0 img_idx:135 target_system:0 cam_idx:0 flags:0
event time 31 Jul 2018 13:28:02 GMT id:180 1533043682627 MAVLINK_MSG_ID_CAMERA_FEEDBACK - time_usec:1533816791367560 lat:509784528 lng:311429357 alt_msl:121.79 alt_rel:1.69 roll:-13.66 pitch:1.0 yaw:66.27 foc_len:0.0 img_idx:136 target_system:0 cam_idx:0 flags:0
